City_ID,City,Cloudiness,Country,Date,Humidity,Lat,Lng,Max Temp,Wind Speed
0,chifeng,0,CN,1518557252,70,42.27,118.96,9.26,7.96
1,panjakent,75,UZ,1518553800,66,39.5,67.61,48.2,2.24
2,paredon,64,BO,1518557254,74,-18.93,-65.16,57.73,2.93
3,yellowknife,75,CA,1518555600,63,62.45,-114.38,-7.61,11.41
4,vallenar,20,CL,1518557254,75,-28.58,-70.76,72.71,2.93
5,san jeronimo,64,PE,1518557255,76,-13.65,-73.37,53.81,2.48
6,vaini,0,IN,1518557255,64,15.34,74.49,63.26,4.83
7,ushuaia,75,AR,1518555600,87,-54.81,-68.31,55.4,10.29
8,hilo,1,US,1518555360,58,19.71,-155.08,82.4,12.75
9,arraial do cabo,40,BR,1518555600,88,-22.97,-42.02,80.6,6.93
10,kapaa,75,US,1518555360,83,22.08,-159.32,75.2,9.17
11,portland,20,US,1518555360,42,45.52,-122.67,46.4,3.27
12,rikitea,76,PF,1518557257,97,-23.12,-134.97,81.04,16.58
13,hay river,75,CA,1518555600,77,60.82,-115.79,-0.41,6.93
14,ponta do sol,68,BR,1518557258,72,-20.63,-46.0,78.52,1.25
15,trincomalee,80,LK,1518557258,89,8.58,81.23,74.74,4.5
16,cabo san lucas,90,MX,1518554880,41,22.89,-109.91,82.4,4.7
17,aswan,0,EG,1518552000,29,24.09,32.9,66.2,10.29
18,mar del plata,0,AR,1518557259,21,-46.43,-67.52,84.64,21.94
19,new norfolk,75,AU,1518553800,59,-42.78,147.06,62.6,9.17
20,saint-augustin,0,FR,1518555600,93,44.83,-0.61,46.4,5.82
21,balikpapan,48,ID,1518557102,100,-1.24,116.86,79.15,1.81
22,flinders,0,AU,1518552000,100,-34.58,150.85,64.4,4.72
23,anloga,20,GH,1518555600,83,5.79,0.9,84.2,13.87
24,bambous virieux,40,MU,1518552000,83,-20.34,57.76,80.6,5.84
25,albany,75,US,1518555240,33,42.65,-73.75,30.2,3.15
26,papara,40,BR,1518555600,78,-3.98,-38.73,80.6,5.82
27,jamestown,0,AU,1518557262,73,-33.21,138.6,60.52,9.75
28,loveland,1,US,1518555360,34,40.4,-105.08,60.8,20.8
29,straumen,0,NO,1518555000,62,63.87,11.3,26.6,6.93
30,port alfred,92,ZA,1518557263,95,-33.59,26.89,71.32,16.35
31,port hardy,90,CA,1518555600,86,50.7,-127.42,41.0,8.05
32,shimoda,0,JP,1518557263,100,34.7,138.93,44.99,13.89
33,anqiu,0,CN,1518557264,37,36.48,119.21,39.01,11.54
34,dunedin,92,NZ,1518557102,100,-45.87,170.5,57.28,1.59
35,saquena,36,PE,1518557264,81,-4.67,-73.52,82.61,8.52
36,barrow,0,AR,1518557264,22,-38.31,-60.23,84.73,7.96
37,qaanaaq,12,GL,1518557265,85,77.48,-69.36,-20.26,4.16
38,talnakh,36,RU,1518557265,73,69.49,88.39,-6.31,5.5
39,lavrentiya,92,RU,1518557265,98,65.58,-170.99,29.92,27.76
40,kargasok,0,RU,1518557266,74,59.06,80.87,-10.81,2.82
41,alice,90,US,1518555360,87,27.75,-98.07,55.4,8.05
42,gouyave,20,GD,1518552000,69,12.16,-61.73,82.4,17.22
43,buraydah,40,SA,1518555600,49,26.33,43.97,69.8,21.92
44,cape town,40,ZA,1518555600,88,-33.93,18.42,69.8,13.87
45,noumea,90,NC,1518555600,100,-22.28,166.46,71.6,3.36
46,clyde river,1,CA,1518552000,66,70.47,-68.59,-31.01,8.05
47,saint-philippe,1,CA,1518555600,57,45.36,-73.48,24.8,8.05
48,deputatskiy,0,RU,1518557268,59,69.3,139.9,-34.39,2.59
49,busselton,0,AU,1518557268,100,-33.64,115.35,61.42,12.44
50,bredasdorp,48,ZA,1518557268,91,-34.53,20.04,70.24,20.49
51,soyo,24,AO,1518557269,81,-6.13,12.37,80.86,5.39
52,tuktoyaktuk,20,CA,1518555600,67,69.44,-133.03,-25.61,8.05
53,sawakin,0,SD,1518552000,83,19.1,37.33,77.0,16.11
54,thompson,90,CA,1518555600,72,55.74,-97.86,14.0,6.93
55,kodiak,1,US,1518555180,37,39.95,-94.76,50.0,17.22
56,bargarh,56,IN,1518557271,95,25.14,81.45,60.61,6.4
57,hasaki,20,JP,1518553800,79,35.73,140.83,24.8,1.12
58,punta arenas,90,CL,1518555600,87,-53.16,-70.91,53.6,10.29
59,cayenne,0,GF,1518555600,83,4.94,-52.33,78.8,8.05
60,nikolskoye,75,RU,1518555600,73,59.7,30.79,23.0,6.71
61,north vanlaiphai,36,IN,1518557273,88,23.13,93.07,52.15,1.7
62,tiksi,44,RU,1518557273,72,71.64,128.87,-10.77,3.38
63,bowen,0,AU,1518552000,94,-20.01,148.25,75.2,5.82
64,miki,0,JP,1518553800,80,34.85,135.08,35.6,5.82
65,marshall,75,US,1518556500,65,39.39,-87.69,44.6,8.05
66,san patricio,0,PY,1518557275,41,-26.98,-56.83,84.1,5.39
67,udachnyy,48,RU,1518557275,72,66.42,112.4,-6.99,5.39
68,juneau,90,US,1518555720,100,58.3,-134.42,37.4,3.36
69,santa rosa,0,AR,1518557278,29,-36.62,-64.29,87.79,12.1
70,turayf,0,SA,1518555600,93,31.68,38.65,42.8,4.7
71,saint-pierre,0,FR,1518555600,74,48.95,4.24,35.6,6.93
72,hermanus,24,ZA,1518557279,82,-34.42,19.24,70.24,3.71
73,puerto ayora,40,EC,1518555600,55,-0.74,-90.35,87.8,18.34
74,mizan teferi,68,ET,1518557280,59,6.99,35.58,69.74,1.36
75,leningradskiy,56,RU,1518557280,84,69.38,178.42,9.22,16.69
76,strezhevoy,0,RU,1518555600,83,60.73,77.6,-9.41,4.47
77,westport,75,IE,1518553800,86,53.8,-9.52,33.8,13.87
78,turtas,48,RU,1518557281,83,58.94,69.13,1.21,3.49
79,faanui,100,PF,1518557281,100,-16.48,-151.75,79.73,31.45
80,ribeira grande,40,PT,1518555600,88,38.52,-28.7,62.6,16.11
81,elblag,90,PL,1518555600,80,54.15,19.41,30.2,2.24
82,bluff,0,AU,1518557283,91,-23.58,149.07,76.49,9.98
83,hamilton,75,BM,1518555300,83,32.3,-64.78,71.6,6.93
84,huron,1,US,1518555300,68,44.36,-98.21,28.4,12.75
85,basco,1,US,1518556500,64,40.33,-91.2,39.2,6.93
86,canora,90,CA,1518555600,68,51.64,-102.43,24.8,16.11
87,pevek,32,RU,1518557284,100,69.7,170.27,-1.27,2.59
88,hobart,75,AU,1518553800,59,-42.88,147.33,62.6,9.17
89,aripuana,76,BR,1518557285,95,-9.17,-60.63,77.89,2.71
90,chokurdakh,80,RU,1518557285,71,70.62,147.9,-5.86,8.3
91,whitehorse,75,CA,1518555600,86,60.72,-135.06,28.4,11.41
92,jalu,8,LY,1518557285,51,29.03,21.55,47.83,2.93
93,east bethel,1,US,1518556500,58,45.32,-93.2,30.2,12.75
94,ahipara,48,NZ,1518557286,97,-35.17,173.16,71.77,4.5
95,albina,92,GF,1518557286,78,5.5,-54.06,77.71,3.38
96,airai,76,TL,1518557287,95,-8.93,125.41,69.11,1.14
97,mahebourg,40,MU,1518552000,83,-20.41,57.7,80.6,5.84
98,hokitika,88,NZ,1518557287,100,-42.72,170.96,62.54,3.27
99,alta gracia,0,AR,1518555600,39,-31.66,-64.43,80.6,13.87
100,bilibino,20,RU,1518557288,56,68.06,166.44,-12.79,2.93
101,hithadhoo,88,MV,1518557288,100,-0.6,73.08,83.02,7.52
102,austin,90,US,1518555360,87,30.27,-97.74,48.2,9.42
103,virginia beach,90,US,1518555540,86,36.85,-75.98,42.8,12.75
104,sebastian,1,US,1518555360,69,27.82,-80.47,78.8,9.17
105,lyaskelya,92,RU,1518557289,92,61.77,31.02,25.24,8.41
106,maraa,76,BR,1518557289,90,-1.83,-65.37,79.6,2.37
107,butaritari,80,KI,1518557290,96,3.07,172.79,83.56,24.63
108,tasiilaq,88,GL,1518555000,92,65.61,-37.64,23.0,9.17
109,blythe,40,US,1518555120,39,33.61,-114.59,66.2,5.17
110,haines junction,64,CA,1518557291,86,60.75,-137.51,15.07,2.59
111,geraldton,90,CA,1518555600,67,49.72,-86.95,21.2,20.8
112,dikson,76,RU,1518557292,89,73.51,80.55,18.58,6.62
113,noyabrsk,48,RU,1518557292,57,63.2,75.45,-11.4,3.94
114,khatanga,48,RU,1518557292,81,71.98,102.47,-4.42,9.42
115,te anau,32,NZ,1518557293,90,-45.41,167.72,51.16,3.71
116,tuy hoa,48,VN,1518557293,93,13.08,109.3,67.49,8.75
117,san quintin,44,PH,1518557293,85,17.54,120.52,62.99,3.04
118,mocuba,80,MZ,1518557294,98,-16.84,36.99,73.39,2.71
119,ilulissat,40,GL,1518555000,52,69.22,-51.1,-11.21,10.29
120,kirakira,0,SB,1518557295,100,-10.46,161.92,82.66,7.74
121,tula,88,RU,1518557295,88,54.19,37.62,13.27,10.09
122,grindavik,20,IS,1518555600,92,63.84,-22.43,26.6,9.17
123,lompoc,90,US,1518555360,48,34.64,-120.46,60.8,12.75
124,karratha,8,AU,1518557296,74,-20.74,116.85,78.52,5.61
125,vila velha,40,BR,1518555600,78,-3.71,-38.6,80.6,5.82
126,alofi,32,NU,1518557296,100,-19.06,-169.92,81.89,10.65
127,dolores,0,AR,1518557297,32,-36.31,-57.68,80.63,6.17
128,alice springs,68,AU,1518555600,61,-23.7,133.88,78.8,4.7
129,georgetown,75,GY,1518555600,78,6.8,-58.16,78.8,9.17
130,nanortalik,0,GL,1518557298,100,60.14,-45.24,18.31,30.22
131,saldanha,92,PT,1518557299,98,41.42,-6.55,45.26,10.76
132,miles city,1,US,1518555180,72,46.41,-105.84,15.8,9.17
133,lebu,0,ET,1518557299,55,8.96,38.73,56.92,8.75
134,yarkovo,0,RU,1518555600,84,54.81,82.6,-0.41,8.95
135,mount isa,0,AU,1518553800,58,-20.73,139.49,82.4,5.82
136,atuona,0,PF,1518557300,100,-9.8,-139.03,80.86,16.8
137,mareeba,75,AU,1518555600,94,-16.99,145.42,75.2,4.7
138,baghdad,40,IQ,1518555600,87,33.3,44.38,55.4,18.34
139,provideniya,90,RU,1518555600,93,64.42,-173.23,32.0,22.37
140,dukat,92,RS,1518557301,97,42.44,22.31,35.41,5.17
141,cidreira,0,BR,1518557302,68,-30.17,-50.22,72.71,9.64
142,comodoro rivadavia,0,AR,1518555600,18,-45.87,-67.48,89.6,19.46
143,mashhad,90,IR,1518555600,66,36.3,59.61,48.2,6.93
144,keelung,20,TW,1518553800,93,25.13,121.74,55.4,6.93
145,longyearbyen,20,NO,1518555000,73,78.22,15.63,19.4,17.22
146,bathsheba,75,BB,1518555600,88,13.22,-59.52,73.4,28.86
147,muros,90,ES,1518555600,93,42.77,-9.06,50.0,8.05
148,kurunegala,76,LK,1518557304,92,7.49,80.36,61.51,2.59
149,lensk,56,RU,1518557305,71,60.71,114.91,-2.62,5.73
150,kazerun,92,IR,1518557305,43,29.62,51.65,62.32,5.28
151,codrington,0,AU,1518557305,92,-28.95,153.24,75.23,4.16
152,castro,0,CL,1518557306,59,-42.48,-73.76,70.06,2.71
153,kholodnyy,64,RU,1518557306,74,62.72,147.95,-5.73,7.63
154,mataura,12,NZ,1518557306,82,-46.19,168.86,59.8,4.05
155,bako,0,NG,1518557306,63,9.68,6.4,82.57,8.41
156,navahrudak,92,BY,1518557307,91,53.59,25.82,23.35,7.18
157,yulara,90,AU,1518555600,94,-25.24,130.99,73.4,8.05
158,havelock,90,US,1518556560,93,34.88,-76.9,46.4,12.75
159,ojinaga,48,US,1518557307,19,29.56,-104.41,69.25,4.16
160,la venta del astillero,40,MX,1518554820,31,20.73,-103.55,77.0,5.82
161,cherskiy,20,RU,1518557308,70,68.75,161.3,-10.27,5.28
162,north bend,1,US,1518555360,53,43.41,-124.22,51.8,5.82
163,pacific grove,1,US,1518555300,39,36.62,-121.92,62.6,8.05
164,nuuk,75,GL,1518555000,100,64.17,-51.74,-4.01,21.92
165,saskylakh,68,RU,1518557309,70,71.97,114.09,-9.91,7.96
166,lasa,40,CY,1518555600,62,34.92,32.53,59.0,14.99
167,kaitangata,8,NZ,1518557310,84,-46.28,169.85,59.93,7.18
168,iqaluit,90,CA,1518555600,60,63.75,-68.52,-25.61,8.05
169,makakilo city,75,US,1518556200,100,21.35,-158.09,77.0,4.7
170,lagoa,0,PT,1518555600,71,37.14,-8.45,50.0,8.05
171,lazaro cardenas,90,MX,1518554520,19,28.39,-105.62,66.2,11.41
172,kimbe,68,PG,1518557312,100,-5.56,150.15,79.24,7.63
173,touros,24,BR,1518557312,88,-5.2,-35.46,80.18,5.73
174,quatre cocos,40,MU,1518552000,83,-20.21,57.76,80.6,5.84
175,manono,0,CD,1518557313,54,-7.3,27.4,77.17,8.86
176,schweinfurt,1,DE,1518555360,79,50.05,10.23,26.6,4.7
177,atasu,92,KZ,1518557313,86,48.68,71.64,20.29,9.19
178,rio gallegos,75,AR,1518555600,62,-51.62,-69.22,75.2,26.4
179,sao joao da barra,40,BR,1518555600,69,-21.64,-41.05,82.4,14.99
180,kavieng,44,PG,1518557315,100,-2.57,150.8,82.57,9.75
181,oktyabrskiy,76,RU,1518555600,84,55.61,37.97,15.8,6.71
182,klaksvik,0,FO,1518555000,92,62.23,-6.59,30.2,3.36
183,tamandare,40,BR,1518552000,94,-8.28,-70.75,77.0,5.82
184,sao felix do xingu,64,BR,1518557316,90,-6.64,-51.99,77.44,2.37
185,ambon,0,FR,1518555600,80,47.55,-2.56,35.6,5.82
186,upernavik,0,GL,1518557317,100,72.79,-56.15,-4.69,8.75
187,mackay,75,CA,1518555600,80,53.65,-115.58,41.0,4.7
188,simpang,75,MY,1518552000,88,4.82,100.71,78.8,3.36
189,devils lake,1,US,1518556500,73,48.11,-98.87,19.4,19.46
190,zhigansk,56,RU,1518557318,79,66.77,123.37,-12.57,5.73
191,chapais,75,CA,1518555600,60,49.78,-74.86,10.4,19.46
192,havoysund,20,NO,1518555000,73,71.0,24.66,26.6,27.51
193,laguna,90,MX,1518554700,33,27.52,-110.01,75.2,5.82
194,saint-francois,90,FR,1518555600,86,46.42,3.91,33.8,3.36
195,acheng,20,CN,1518552000,76,45.55,126.95,-9.41,4.47
196,salalah,0,OM,1518555000,64,17.01,54.1,69.8,4.7
197,port elizabeth,1,US,1518555360,51,39.31,-74.98,37.4,11.41
198,digha,24,IN,1518557321,100,21.62,87.51,68.84,11.88
199,rio grande,40,BR,1518554700,53,-32.03,-52.1,77.0,9.17
200,tondano,40,ID,1518555600,94,1.3,124.91,77.0,1.59
201,port lincoln,0,AU,1518557322,91,-34.72,135.86,64.93,17.25
202,the valley,20,AI,1518555600,65,18.22,-63.06,80.6,19.46
203,beringovskiy,64,RU,1518557323,86,63.05,179.32,29.51,13.33
204,east london,92,ZA,1518557324,100,-33.02,27.91,72.53,16.58
205,dudinka,76,RU,1518557324,72,69.41,86.18,-1.99,10.42
206,san mateo del mar,0,MX,1518557324,83,16.21,-94.98,80.95,31.56
207,kualakapuas,90,ID,1518553800,100,-3.01,114.39,78.8,4.7
208,kisangani,24,CD,1518557325,96,0.52,25.21,75.01,2.93
209,nchelenge,0,ZM,1518557325,93,-9.35,28.74,65.38,2.93
210,sarangani,88,PH,1518557325,100,5.4,125.46,78.61,5.73
211,mawlaik,32,MM,1518557326,84,23.63,94.42,62.59,2.15
212,segou,0,SN,1518557326,27,12.41,-12.29,77.39,8.41
213,gallup,1,US,1518555180,37,35.53,-108.74,51.8,9.17
214,biltine,20,TD,1518557326,26,14.53,20.93,77.26,9.75
215,karak,40,JO,1518555600,93,31.18,35.7,46.4,4.7
216,moro,8,PK,1518555600,77,26.66,68.0,59.0,4.05
217,coihaique,0,CL,1518555600,19,-45.58,-72.07,75.2,8.05
218,snasa,0,NO,1518553200,68,64.25,12.38,26.6,4.7
219,meadow lake,90,CA,1518555600,86,54.13,-108.44,32.0,12.75
220,tezu,92,IN,1518557329,56,27.93,96.16,52.19,1.7
221,rosamorada,56,MX,1518557329,29,22.12,-105.21,86.53,2.71
222,fuerte olimpo,0,BR,1518557329,68,-21.04,-57.87,88.01,8.75
223,neuquen,0,AR,1518552000,16,-38.95,-68.06,93.2,11.41
224,caravelas,44,BR,1518557330,100,-17.73,-39.27,80.68,13.67
225,chuy,0,UY,1518557330,68,-33.69,-53.46,71.54,8.75
226,trairi,12,BR,1518557163,100,-3.28,-39.27,79.28,5.73
227,norman wells,90,CA,1518555600,77,65.28,-126.83,1.4,4.7
228,kiama,0,AU,1518552000,100,-34.67,150.86,64.4,4.72
229,ayan,32,TR,1518557332,89,40.67,33.6,26.54,1.59
230,nome,90,US,1518555600,93,30.04,-94.42,51.8,3.36
231,berezovka,0,RU,1518557333,56,57.6,57.31,-5.41,2.71
232,yeppoon,76,AU,1518553800,78,-23.13,150.74,80.6,1.12
233,tura,80,IN,1518557333,88,25.52,90.21,57.28,4.61
234,okhotsk,68,RU,1518557333,100,59.36,143.24,1.61,7.63
235,severo-yeniseyskiy,48,RU,1518557334,71,60.37,93.04,-2.49,4.61
236,hofn,68,IS,1518557334,100,64.25,-15.21,35.09,10.54
237,alberton,0,ZA,1518555600,68,-26.25,28.13,71.6,9.98
238,trenggalek,76,ID,1518557334,96,-8.05,111.71,68.8,1.92
239,abancay,68,PE,1518557335,72,-13.64,-72.88,53.95,2.15
240,bethel,90,US,1518555900,95,60.79,-161.76,33.8,32.21
241,garden city,1,US,1518555360,50,40.73,-73.63,37.4,11.41
242,samarai,12,PG,1518557336,100,-10.62,150.67,80.09,9.64
243,calvinia,8,ZA,1518557337,73,-31.47,19.78,67.99,4.16
244,crestview,75,US,1518555360,69,30.76,-86.57,77.0,4.7
245,port-cartier,20,CA,1518555600,38,50.03,-66.88,5.0,6.93
246,japura,68,ID,1518557337,89,-0.42,102.29,73.3,1.7
247,batagay,0,RU,1518557338,0,67.65,134.64,-41.77,2.04
248,avarua,40,CK,1518555600,61,-21.21,-159.78,78.8,12.75
249,sorland,75,NO,1518555000,64,67.67,12.69,35.6,10.29
250,grand bank,75,CA,1518555600,57,47.1,-55.77,17.6,26.4
251,lata,0,IN,1518557339,74,30.78,78.62,28.39,2.71
252,tilichiki,44,RU,1518557340,88,60.47,166.1,24.97,7.4
253,xiaoweizhai,76,CN,1518557340,87,26.23,107.51,49.0,9.19
254,dinghai,0,CN,1518552000,71,26.28,119.79,50.0,8.95
255,rawson,8,AR,1518557341,24,-43.3,-65.11,90.13,18.03
256,makat,12,KZ,1518557341,35,47.65,53.35,-9.64,3.04
257,mafra,20,PT,1518555600,81,38.94,-9.33,51.8,4.7
258,bom jardim,40,BR,1518555600,78,-7.8,-35.59,77.0,13.87
259,omsukchan,80,RU,1518557343,76,62.53,155.8,0.22,9.64
260,santo andre,92,BR,1518557343,100,-0.91,-46.86,72.58,3.04
261,redmond,40,US,1518555480,45,47.67,-122.12,48.2,3.36
262,suntar,64,RU,1518557344,76,62.16,117.65,-7.53,4.72
263,bondo,56,CD,1518557157,94,3.81,23.69,75.41,2.15
264,beibei,0,CN,1518552000,81,29.83,106.43,46.4,4.47
265,clinton,1,US,1518556500,68,41.84,-90.19,35.6,9.17
266,matagami,0,NG,1518557346,37,9.67,8.4,72.76,5.61
267,victoria,75,BN,1518553800,94,5.28,115.24,77.0,1.03
268,zhenlai,0,CN,1518557347,69,45.84,123.2,1.57,8.97
269,tuatapere,76,NZ,1518557348,100,-46.13,167.69,55.79,6.73
270,kidal,0,ML,1518557348,38,18.44,1.41,56.51,7.29
271,tortona,75,IT,1518555000,70,44.9,8.86,42.8,10.29
272,hualmay,12,PE,1518557349,66,-11.1,-77.61,77.35,4.61
273,pyu,0,MM,1518557349,88,18.48,96.43,66.59,2.71
274,elat,88,CM,1518557350,100,2.91,11.16,68.53,2.59
275,pringsewu,88,ID,1518557350,94,-5.36,104.98,72.13,2.59
276,fairfield,1,US,1518555480,27,38.25,-122.04,64.4,11.41
277,novyye gorki,64,RU,1518557351,86,56.73,41.06,12.37,6.96
278,yatou,75,CM,1518555600,88,3.63,9.81,82.4,1.12
279,northam,0,GB,1518555000,80,51.04,-4.21,37.4,3.36
280,marica,75,BR,1518555600,62,-22.92,-42.82,86.0,8.05
281,ciudad bolivar,92,VE,1518557169,40,8.12,-63.55,88.6,12.66
282,xichang,0,CN,1518557352,32,27.88,102.25,44.5,2.37
283,dobruska,0,CZ,1518555600,92,50.29,16.16,28.4,4.61
284,chimoio,75,MZ,1518555600,100,-19.11,33.48,68.0,4.7
285,tocopilla,80,CL,1518557353,79,-22.09,-70.2,71.32,5.84
286,serenje,8,ZM,1518557354,92,-13.23,30.22,65.33,9.31
287,arlit,0,NE,1518557354,27,18.74,7.39,61.6,9.53
288,severo-kurilsk,48,RU,1518557354,100,50.68,156.12,22.49,16.35
289,darab,8,IR,1518557354,34,28.75,54.55,49.94,4.61
290,skjervoy,0,NO,1518555000,63,70.03,20.97,30.2,11.41
291,suez,0,EG,1518557355,89,29.97,32.54,48.37,3.15
292,prince rupert,90,CA,1518555600,86,54.32,-130.32,41.0,12.75
293,adrar,0,DZ,1518555600,18,27.87,-0.29,59.0,8.52
294,sadovoye,92,RU,1518557356,84,47.78,44.52,17.59,13.0
295,kenai,1,US,1518555180,92,60.55,-151.26,33.8,8.05
296,cassilandia,88,BR,1518557356,86,-19.11,-51.73,79.51,7.74
297,nemuro,0,JP,1518557357,100,43.32,145.57,24.88,26.19
298,constitucion,90,MX,1518554580,30,23.99,-104.67,73.4,3.94
299,torbay,75,CA,1518555600,47,47.66,-52.73,15.8,24.16
300,ulladulla,0,AU,1518552000,100,-35.36,150.48,64.4,11.77
301,omaruru,12,NA,1518557359,73,-21.42,15.95,66.28,3.83
302,cruz alta,0,AR,1518557359,61,-33.01,-61.81,78.88,7.07
303,fortuna,0,ES,1518555600,87,38.18,-1.13,51.8,4.7
304,betulia,40,CO,1518555600,57,6.11,-75.98,77.0,17.22
305,sioux lookout,90,CA,1518555720,67,50.1,-91.92,21.2,19.46
306,vanimo,88,PG,1518557361,100,-2.67,141.3,79.91,14.45
307,anadyr,75,RU,1518555600,92,64.73,177.51,28.4,29.08
308,novoagansk,64,RU,1518557362,47,61.94,76.66,-15.72,2.71
309,druzhba,76,UA,1518557362,74,49.36,25.65,19.66,5.28
310,abha,0,SA,1518555600,48,18.22,42.5,62.6,3.36
311,egvekinot,88,RU,1518557362,81,66.32,-179.17,13.76,6.85
312,ati,8,TD,1518557363,24,13.21,18.34,81.53,12.21
313,bowmore,75,US,1518556500,65,34.94,-79.3,48.2,5.82
314,sydney,75,AU,1518555600,78,-33.85,151.22,77.0,8.05
315,beloha,76,MG,1518557363,96,-25.17,45.06,70.87,7.4
316,morros,75,BR,1518555600,78,-2.87,-44.04,80.6,10.29
317,inuvik,5,CA,1518555600,61,68.36,-133.71,-22.01,3.36
318,chadiza,0,ZM,1518557364,84,-14.06,32.43,65.92,5.95
319,luderitz,0,NA,1518555600,73,-26.65,15.16,69.8,2.24
320,kampot,0,KH,1518557365,72,10.62,104.18,67.49,5.95
321,kahului,1,US,1518555360,61,20.89,-156.47,80.6,10.29
322,waipawa,44,NZ,1518557365,78,-39.94,176.59,72.85,3.94
323,ahuimanu,75,US,1518556200,100,21.44,-157.84,77.0,4.7
324,olivenza,90,ES,1518552000,62,38.68,-7.1,53.6,2.24
325,burla,36,RU,1518557366,80,53.34,78.33,4.13,13.0
326,los llanos de aridane,20,ES,1518555600,72,28.66,-17.92,60.8,8.05
327,college,90,US,1518555480,86,64.86,-147.8,28.4,17.22
328,mahdalynivka,90,UA,1518555600,92,48.92,34.92,23.0,4.47
329,carauari,92,BR,1518557368,100,-4.88,-66.9,74.92,2.71
330,abu samrah,8,SY,1518557368,84,35.3,37.18,49.54,13.22
331,narkanda,8,IN,1518557368,62,31.25,77.46,29.65,2.04
332,narsaq,36,GL,1518555000,59,60.91,-46.05,3.2,4.7
333,kumukh,80,RU,1518557369,76,42.17,47.12,18.58,1.7
334,pangnirtung,20,CA,1518555600,58,66.15,-65.72,-40.01,2.48
335,fonte boa,76,BR,1518557371,81,-2.51,-66.09,82.34,3.71
336,nago,0,IT,1518555000,80,45.88,10.89,33.8,4.7
337,taltal,0,CL,1518557371,62,-25.41,-70.49,72.31,4.94
338,konjic,75,BA,1518555600,96,43.65,17.96,39.2,6.93
339,lahaina,75,US,1518555360,69,20.87,-156.68,80.6,4.7
340,araouane,0,ML,1518557372,30,18.9,-3.53,56.83,6.62
341,teguldet,24,RU,1518557372,73,57.31,88.17,-10.72,4.83
342,tougan,0,BF,1518557373,29,13.07,-3.07,69.74,7.74
343,hun,0,BE,1518556800,59,50.34,4.87,33.8,9.17
344,esperance,20,TT,1518555600,61,10.24,-61.45,82.4,12.75
345,preobrazheniye,0,RU,1518557373,61,42.9,133.91,-8.16,2.04
346,lebanon,1,US,1518555360,36,43.64,-72.25,30.2,2.93
347,lorengau,88,PG,1518557374,100,-2.02,147.27,79.33,12.44
348,dingle,92,PH,1518557374,97,11.0,122.67,74.69,15.12
349,aden,0,YE,1518557375,97,12.79,45.03,76.76,18.03
350,kraslava,88,LV,1518557375,94,55.9,27.16,23.71,7.52
351,fare,100,PF,1518557375,100,-16.7,-151.02,79.24,31.0
352,sinnamary,92,GF,1518557376,100,5.38,-52.96,77.17,8.19
353,tessalit,0,ML,1518557376,30,20.2,1.01,55.79,7.63
354,padang,88,ID,1518557377,100,-0.92,100.36,82.16,2.59
355,ferme-neuve,32,CA,1518557377,48,46.7,-75.45,17.59,8.52
356,zyryanka,80,RU,1518557377,66,65.73,150.89,-8.92,10.54
357,creel,92,MX,1518557378,30,27.75,-107.63,54.04,5.95
358,sawtell,40,AU,1518553800,83,-30.38,153.1,80.6,6.93
359,tanete,32,ID,1518557379,90,-3.94,119.78,76.49,8.19
360,mogadishu,76,SO,1518557296,98,2.04,45.34,78.61,13.33
361,den helder,0,NL,1518555300,74,52.96,4.76,41.0,8.05
362,komsomolskiy,68,RU,1518557379,84,67.55,63.78,12.82,6.85
363,kohat,40,PK,1518555600,76,33.6,71.44,48.2,4.7
364,quballat,40,TN,1518555600,70,36.54,9.66,46.4,6.93
365,parabel,0,RU,1518557380,60,58.71,81.5,-12.52,2.93
366,norfolk,90,US,1518556500,86,36.85,-76.29,42.8,13.87
367,paamiut,44,GL,1518557381,100,61.99,-49.67,13.04,41.85
368,vetapalem,36,IN,1518557381,100,15.78,80.32,75.82,5.06
369,puerto carreno,40,CO,1518555600,43,6.19,-67.49,91.4,11.41
370,oyama,20,JP,1518555600,68,36.31,139.8,26.6,6.93
371,eisiskes,90,LT,1518555000,92,54.17,25.0,30.2,2.24
372,storslett,8,NO,1518557383,90,69.77,21.03,-5.01,3.15
373,ostrovnoy,8,RU,1518557383,84,68.05,39.51,17.05,11.65
374,bonfim,0,BR,1518555600,51,-20.33,-44.24,82.4,9.17
375,carupano,100,VE,1518557383,100,10.67,-63.26,73.34,12.88
376,bandarbeyla,92,SO,1518557384,100,9.49,50.81,74.06,9.08
377,woodstock,75,CA,1518555600,62,43.13,-80.75,24.8,9.17
378,batagay-alyta,32,RU,1518557384,35,67.8,130.41,-25.62,2.59
379,clarence town,40,AU,1518555600,83,-32.59,151.78,77.0,6.93
380,mengcheng,44,CN,1518557385,88,33.26,116.57,32.98,3.27
381,vardo,90,US,1518555300,41,39.62,-77.74,41.0,8.05
382,najran,0,SA,1518555600,13,17.54,44.22,68.0,4.72
383,hobyo,100,SO,1518557387,92,5.35,48.53,74.78,10.76
384,ntoum,75,GA,1518555600,94,0.39,9.76,78.8,5.82
385,porosozero,88,RU,1518557388,88,62.72,32.71,23.21,4.94
386,hervey bay,76,AU,1518557388,98,-25.3,152.85,79.42,9.19
387,sergeyevka,88,KZ,1518557388,80,53.88,67.42,6.38,9.08
388,moose factory,90,CA,1518556380,67,51.26,-80.61,21.2,20.8
389,leshukonskoye,80,RU,1518557389,87,64.9,45.76,18.04,4.61
390,bonthe,0,SL,1518557390,79,7.53,-12.5,81.13,5.17
391,chongwe,88,ZM,1518557390,98,-15.33,28.68,67.27,2.59
392,plettenberg bay,80,ZA,1518557390,87,-34.05,23.37,71.23,22.06
393,pisco,0,PE,1518555600,65,-13.71,-76.2,80.6,23.04
394,kuusamo,90,FI,1518556800,92,65.96,29.19,24.8,6.93
395,bafq,36,IR,1518557391,20,31.6,55.4,65.83,14.34
396,aleksandrov gay,8,RU,1518557391,47,50.14,48.57,-7.35,4.5
397,arman,40,RU,1518555600,55,59.7,150.17,8.6,17.9
398,tieli,56,CN,1518557392,63,46.98,128.05,-8.34,2.71
399,bendigo,48,AU,1518557343,74,-36.76,144.28,61.15,14.67
400,nicoya,20,CR,1518555600,48,10.15,-85.45,87.8,28.86
401,aykhal,36,RU,1518557393,65,65.95,111.51,-9.87,8.19
402,muravlenko,68,RU,1518557393,80,63.79,74.5,-4.2,8.52
403,verkhnyaya inta,80,RU,1518557393,83,65.99,60.32,17.68,6.17
404,balkhash,92,KZ,1518557394,90,46.84,74.98,24.74,8.19
405,mitsamiouli,0,KM,1518557394,100,-11.38,43.28,80.09,3.04
406,bonavista,24,CA,1518557395,100,48.65,-53.11,15.38,29.33
407,illapel,0,CL,1518557395,82,-31.63,-71.17,69.83,3.27
408,avera,90,US,1518555300,66,33.19,-82.53,55.4,8.05
409,richards bay,76,ZA,1518557396,89,-28.77,32.06,70.24,3.04
410,porangatu,0,BR,1518557397,72,-13.44,-49.14,84.28,4.61
411,durazno,0,UY,1518555600,26,-33.38,-56.52,82.4,4.38
412,carnarvon,88,ZA,1518557397,80,-30.97,22.13,63.49,3.94
413,mount gambier,32,AU,1518557255,86,-37.83,140.78,57.37,11.32
414,ligayan,68,PH,1518557398,100,4.65,119.47,79.96,15.79
415,daru,88,SL,1518557398,46,7.99,-10.85,87.7,2.93
416,batsfjord,0,NO,1518555000,67,70.63,29.72,24.8,13.87
417,pierre,1,US,1518555180,62,44.37,-100.35,24.8,6.93
418,wagga wagga,0,AU,1518555600,40,-35.12,147.37,68.0,3.36
419,umm kaddadah,0,SD,1518557399,21,13.6,26.69,80.05,13.44
420,gobabis,0,NA,1518555600,73,-22.45,18.97,71.6,10.42
421,muskegon,90,US,1518556560,36,43.23,-86.25,30.2,5.82
422,timmins,75,CA,1518555600,57,48.48,-81.33,19.4,18.34
423,punta cardon,48,VE,1518557400,68,11.61,-70.22,79.6,22.73
424,sao gabriel da cachoeira,40,BR,1518552000,66,-0.13,-67.09,87.8,2.24
425,stanislav,8,UA,1518557401,96,46.58,32.14,22.45,2.37
426,turukhansk,76,RU,1518557401,82,65.8,87.96,-4.74,6.17
427,fallon,1,US,1518555360,67,46.84,-105.12,17.6,10.29
428,kurya,20,RU,1518557403,55,51.6,82.29,-0.96,3.04
429,kieta,44,PG,1518557404,100,-6.22,155.63,76.58,4.38
430,concarneau,0,FR,1518555600,74,47.88,-3.92,37.4,4.7
431,kruisfontein,64,ZA,1518557407,86,-34.0,24.73,67.63,16.02
432,midyat,64,TR,1518555600,87,37.42,41.36,42.8,6.93
433,bure,0,NG,1518557412,31,10.52,10.33,73.79,8.08
434,nassau,0,DE,1518556800,79,51.17,13.51,28.4,2.24
435,mitu,88,IR,1518557413,99,36.2,46.09,32.84,2.71
436,kyakhta,20,RU,1518557413,59,50.35,106.45,-3.34,3.27
437,koppal,12,IN,1518557414,84,15.35,76.15,66.28,7.74
438,kaseda,75,JP,1518555600,100,31.42,130.32,32.0,5.82
439,paralimni,92,GR,1518557415,100,40.99,23.67,45.13,9.42
440,fort madison,1,US,1518556500,64,40.63,-91.32,37.4,4.7
441,namatanai,36,PG,1518557416,100,-3.66,152.44,81.26,13.0
442,makaleng,92,BW,1518557416,98,-20.8,27.27,65.83,17.47
443,mongo,92,CF,1518557417,95,4.83,22.92,73.3,2.04
444,flin flon,75,CA,1518555600,67,54.77,-101.88,17.6,12.75
445,mazamari,76,PE,1518557417,94,-11.33,-74.53,70.73,1.14
446,kununurra,80,AU,1518555600,83,-15.77,128.74,78.8,3.36
447,faya,0,SA,1518555600,48,18.39,42.45,62.6,3.36
448,kaeo,76,NZ,1518557418,99,-35.1,173.78,71.05,4.94
449,barao de melgaco,75,BR,1518555600,94,-16.19,-55.97,73.4,2.24
450,danielskuil,36,ZA,1518557420,79,-28.19,23.54,65.92,2.15
451,barcelos,75,PT,1518555600,93,41.53,-8.62,53.6,11.41
452,sitka,12,US,1518557421,34,37.17,-99.65,58.76,16.35
453,merauke,88,ID,1518557421,100,-8.49,140.4,76.49,4.61
454,kutum,0,SD,1518557421,36,14.2,24.66,67.0,9.31
455,wuchang,56,CN,1518557422,49,44.93,127.16,-9.01,2.93
456,paramirim,0,BR,1518557422,40,-13.44,-42.24,80.23,6.4
457,qiyang,12,CN,1518557423,81,26.59,111.85,43.87,4.27
458,montorio al vomano,75,IT,1518555000,60,42.58,13.64,42.8,5.82
459,husavik,68,CA,1518557424,70,50.56,-96.99,20.92,19.26
460,katsuura,0,JP,1518557424,100,33.93,134.5,25.06,2.71
461,la ronge,90,CA,1518555600,74,55.1,-105.3,28.4,11.41
462,pospelikha,44,RU,1518557425,79,51.99,81.83,4.09,6.4
463,dullewala,56,PK,1518557425,91,31.84,71.44,50.89,3.6
464,angoram,80,PG,1518557425,99,-4.06,144.07,76.54,2.37
465,cartagena,0,ES,1518555600,87,37.63,-1.0,48.2,4.7
466,abilene,75,US,1518555300,62,32.45,-99.73,64.4,8.05
467,souillac,0,FR,1518555600,80,45.6,-0.6,39.2,6.93
468,coquimbo,20,CL,1518555600,68,-29.95,-71.34,68.0,11.41
469,hurricane,90,US,1518555360,62,37.18,-113.29,51.8,4.7
470,vostok,48,RU,1518557427,73,46.45,135.83,-0.82,4.94
471,srednekolymsk,88,RU,1518557428,84,67.46,153.71,-2.44,6.17
472,berdychiv,32,UA,1518557428,70,49.89,28.58,13.13,3.49
473,elizabeth city,90,US,1518556500,93,36.3,-76.22,42.8,13.87
474,guerrero negro,32,MX,1518557428,57,27.97,-114.04,69.7,6.4
475,sobolevo,76,RU,1518557429,92,54.43,31.9,15.11,10.2
476,general roca,0,AR,1518555600,15,-39.03,-67.58,93.2,11.41
477,leon,1,US,1518556500,59,40.74,-93.75,42.8,5.82
478,san angelo,90,US,1518555060,59,31.46,-100.44,62.6,14.99
479,matara,64,PE,1518557430,76,-13.74,-72.9,53.81,2.48
480,morondava,0,MG,1518557430,100,-20.3,44.28,74.24,6.51
481,ahar,92,IR,1518557431,100,38.48,47.07,33.43,3.15
482,znamenskoye,76,RU,1518557431,80,57.13,73.82,4.31,9.19
483,manjacaze,8,MZ,1518557431,84,-24.71,33.88,70.46,6.62
484,shakawe,12,BW,1518557432,74,-18.36,21.84,72.04,5.95
485,alamos,0,AR,1518557432,27,-36.9,-62.36,84.14,10.2
486,las vegas,75,US,1518555360,43,36.17,-115.15,57.2,5.82
487,tubuala,40,PA,1518555600,55,9.52,-79.03,87.8,13.87
488,tigre,0,AR,1518555600,21,-34.42,-58.58,78.8,8.05
489,nanganga,0,TZ,1518557434,90,-10.41,39.17,70.6,3.38
490,kastamonu,0,TR,1518557428,91,41.38,33.78,23.17,2.59
491,maldonado,0,UY,1518555600,56,-34.91,-54.96,69.8,11.41
492,nhulunbuy,75,AU,1518553800,83,-12.18,136.78,82.4,11.41
493,siocon,68,PH,1518557435,100,11.03,124.04,80.05,20.49
494,pombia,0,IT,1518555000,58,45.65,8.63,33.8,4.7
495,novobiryusinskiy,88,RU,1518557436,76,56.96,97.71,-0.42,3.94
496,kalmar,90,SE,1518555000,93,56.66,16.36,33.8,4.7
497,kodinar,0,IN,1518557436,58,20.79,70.7,61.01,8.41
498,cedar city,90,US,1518555180,69,37.68,-113.06,39.2,4.16
499,morant bay,20,JM,1518555600,55,17.88,-76.41,86.0,9.17
500,rocha,0,UY,1518557437,40,-34.48,-54.34,74.74,6.17
501,kamaishi,0,JP,1518557437,76,39.28,141.86,30.41,10.2
502,goderich,92,CA,1518557438,80,43.74,-81.71,23.26,10.65
503,manokwari,80,ID,1518557438,100,-0.87,134.08,78.16,8.63
504,oudtshoorn,80,ZA,1518555600,88,-33.59,22.2,66.2,8.05
505,phan thiet,8,VN,1518557438,96,10.93,108.1,72.94,6.96
506,manzhouli,8,CN,1518557439,56,49.6,117.43,-7.17,8.97
507,nanchang,0,CN,1518557439,79,28.68,115.89,35.63,3.49
508,albacete,0,ES,1518552000,64,39.0,-1.86,39.2,8.05
509,greymouth,88,NZ,1518557440,100,-42.45,171.21,62.54,3.27
510,necochea,0,AR,1518557322,33,-38.55,-58.74,83.56,1.7
511,tual,48,ID,1518557440,100,-5.67,132.75,80.23,20.71
512,kasungu,0,MW,1518557440,92,-13.04,33.48,65.83,4.61
513,saint-louis,0,CH,1518555600,63,47.59,7.56,30.2,2.24
514,vestnes,0,NO,1518555000,75,62.63,7.09,41.0,9.17
515,cape canaveral,75,US,1518555960,78,28.41,-80.6,82.4,5.82
516,franklin,1,US,1518555360,62,35.93,-86.87,62.6,8.05
517,invermere,24,CA,1518557443,58,50.51,-116.03,15.11,1.92
518,watertown,1,US,1518556500,73,44.9,-97.12,30.2,18.34
519,vao,88,EE,1518557443,95,59.1,26.19,27.94,6.62
520,erenhot,0,CN,1518557444,55,43.65,111.97,-7.44,7.4
521,la romana,40,DO,1518555600,74,18.43,-68.97,80.6,11.41
522,loiza,40,PR,1518555360,61,18.43,-65.88,80.6,19.46
523,dongkan,0,CN,1518557445,74,34.0,119.83,36.67,10.87
524,vestmannaeyjar,76,IS,1518557445,99,63.44,-20.27,34.73,16.13
525,tukan,8,RU,1518557446,54,53.84,57.45,-5.73,2.59
526,poso,12,ID,1518557446,100,-1.4,120.75,77.8,3.15
527,bilma,0,NE,1518557446,49,18.69,12.92,61.15,3.71
528,yar-sale,76,RU,1518557447,88,66.83,70.83,-0.15,12.33
529,aklavik,5,CA,1518555600,61,68.22,-135.01,-22.01,9.17
530,bima,88,ID,1518557447,100,-8.45,118.73,74.51,2.59
531,silvania,75,CO,1518555600,59,4.4,-74.39,64.4,17.22
532,llanes,92,ES,1518557448,94,43.42,-4.75,35.95,2.26
533,riyadh,24,SA,1518555600,12,24.63,46.72,71.6,4.7
534,maniitsoq,24,GL,1518557448,100,65.42,-52.9,-7.17,15.68
535,fairbanks,90,US,1518555480,86,64.84,-147.72,28.4,17.22
536,betare oya,8,CM,1518557449,78,5.6,14.08,73.12,5.84
537,chincha alta,0,PE,1518555600,65,-13.42,-76.13,80.6,23.04
538,dalvik,75,SE,1518555000,100,57.79,14.13,30.2,4.7
539,poum,92,MK,1518557450,99,41.28,20.71,32.89,1.92
540,labuhan,24,ID,1518557450,92,-2.54,115.51,71.68,1.92
541,abalak,0,NE,1518557450,40,15.46,6.28,66.64,6.29
542,lewisporte,20,CA,1518555600,51,49.25,-55.06,10.4,19.46
543,conde,80,BR,1518557451,86,-11.81,-37.61,79.78,9.19
544,palma di montechiaro,12,IT,1518557451,92,37.19,13.77,47.56,17.69
545,naze,40,NG,1518555600,83,5.43,7.07,80.6,0.13
546,black river,20,JM,1518555600,61,18.03,-77.85,82.4,20.8
547,magaria,0,NE,1518557453,33,13.0,8.91,71.77,9.19
548,iida,0,JP,1518557453,69,35.45,137.9,4.72,1.7
549,grand gaube,40,MU,1518552000,83,-20.01,57.66,80.6,8.86
550,sorong,36,ID,1518557454,100,-0.86,131.25,80.09,9.08
